{
"type": "FeatureCollection",
"name": "FurnitureStores_Caragaregion",
"crs": { "type": "name", "properties": { "name": "urn:ogc:def:crs:OGC:1.3:CRS84" } },
"features": [
{ "type": "Feature", "properties": { "Name": "Cabuguan Mini Lumber & Furniture" }, "geometry": { "type": "Point", "coordinates": [ 125.54175, 8.95058, 0.0 ] } },
{ "type": "Feature", "properties": { "Name": "Barcelona Wood Furnitures" }, "geometry": { "type": "Point", "coordinates": [ 126.06279, 8.04261, 0.0 ] } },
{ "type": "Feature", "properties": { "Name": "FM Furniture and General Merchandise" }, "geometry": { "type": "Point", "coordinates": [ 126.31095, 8.88825, 0.0 ] } },
{ "type": "Feature", "properties": { "Name": "Mindanao Rattan Trading" }, "geometry": { "type": "Point", "coordinates": [ 126.41211, 8.03602, 0.0 ] } },
{ "type": "Feature", "properties": { "Name": "Tiber Woodcraft" }, "geometry": { "type": "Point", "coordinates": [ 125.55216, 8.92189, 0.0 ] } },
{ "type": "Feature", "properties": { "Name": "La Sedia Furniture" }, "geometry": { "type": "Point", "coordinates": [ 125.5191, 8.94266, 0.0 ] } },
{ "type": "Feature", "properties": { "Name": "Jen and Ifel Furniture" }, "geometry": { "type": "Point", "coordinates": [ 125.53749, 8.9526, 0.0 ] } },
{ "type": "Feature", "properties": { "Name": "A & G Upholster" }, "geometry": { "type": "Point", "coordinates": [ 125.53724, 8.95381, 0.0 ] } },
{ "type": "Feature", "properties": { "Name": "Dalping Aphulstery" }, "geometry": { "type": "Point", "coordinates": [ 125.53727, 8.95368, 0.0 ] } },
{ "type": "Feature", "properties": { "Name": "Mandaue Foam" }, "geometry": { "type": "Point", "coordinates": [ 125.52491, 8.94372, 0.0 ] } },
{ "type": "Feature", "properties": { "Name": "Carawood Furniture" }, "geometry": { "type": "Point", "coordinates": [ 125.54106, 8.94746, 0.0 ] } },
{ "type": "Feature", "properties": { "Name": "Cris John Furniture" }, "geometry": { "type": "Point", "coordinates": [ 125.54412, 8.946, 0.0 ] } },
{ "type": "Feature", "properties": { "Name": "Babielyn's Kitchenette" }, "geometry": { "type": "Point", "coordinates": [ 125.49622, 9.78982, 0.0 ] } },
{ "type": "Feature", "properties": { "Name": "Sumaylo Furniture" }, "geometry": { "type": "Point", "coordinates": [ 125.48747, 9.78602, 0.0 ] } },
{ "type": "Feature", "properties": { "Name": "Cecile Enterprises" }, "geometry": { "type": "Point", "coordinates": [ 125.49121, 9.78606, 0.0 ] } },
{ "type": "Feature", "properties": { "Name": "GA Woodcraft (Philippine Century)" }, "geometry": { "type": "Point", "coordinates": [ 125.49167, 9.78643, 0.0 ] } },
{ "type": "Feature", "properties": { "Name": "Tiber Woodcraft Furniture" }, "geometry": { "type": "Point", "coordinates": [ 125.53913, 8.96169, 0.0 ] } }
]
}
